City_ID,City,Country,Lat,Lng,Max Temp,Humidity,Cloudiness,Wind Speed,Current Description
0,Albany,US,42.6001,-73.9662,80.64,62,100,3.0,overcast clouds
1,Zhigansk,RU,66.7697,123.3711,53.98,64,100,14.14,overcast clouds
2,Mataura,NZ,-46.1927,168.8643,41.49,83,49,5.06,scattered clouds
3,Monteiro,BR,-7.8894,-37.12,78.6,55,67,12.44,broken clouds
4,Anito,PH,12.4497,125.2886,79.05,87,79,3.6,broken clouds
5,Puerto Ayora,EC,-0.7393,-90.3518,70.56,91,83,5.99,broken clouds
6,Itoman,JP,26.1247,127.6694,84.4,89,100,11.5,overcast clouds
7,Port Alfred,ZA,-33.5906,26.891,65.17,74,48,11.7,scattered clouds
8,Norman Wells,CA,65.282,-126.8329,59.04,72,75,16.11,broken clouds
9,Atar,MR,20.5169,-13.0499,114.66,6,5,14.76,clear sky
10,Usinsk,RU,65.9939,57.5281,67.84,90,98,7.94,light rain
11,Constantine,DZ,36.365,6.6147,96.21,20,0,11.5,clear sky
12,Ushuaia,AR,-54.8,-68.3,40.66,56,40,2.3,scattered clouds
13,Sterling,US,39.0062,-77.4286,86.23,70,75,5.99,broken clouds
14,Buinsk,RU,54.95,48.2833,71.53,78,47,4.74,light rain
15,Hithadhoo,MV,-0.6,73.0833,83.39,77,36,15.01,scattered clouds
16,Kamenka,RU,51.3223,42.7678,73.42,68,38,6.71,scattered clouds
17,Busselton,AU,-33.65,115.3333,56.97,75,86,5.82,overcast clouds
18,Stephenville,US,32.2207,-98.2023,89.87,51,0,5.01,clear sky
19,Lorengau,PG,-2.0226,147.2712,81.3,80,7,9.64,clear sky
20,Khatanga,RU,71.9667,102.5,58.98,58,84,7.61,broken clouds
21,Xining,CN,36.6167,101.7667,56.79,76,100,2.24,overcast clouds
22,Clyde River,CA,70.4692,-68.5914,50.23,57,75,19.57,broken clouds
23,Awjilah,LY,29.1081,21.2869,95.5,18,0,9.86,clear sky
24,Araouane,ML,18.9048,-3.5265,109.62,12,8,14.56,clear sky
25,Torbay,CA,47.6666,-52.7314,73.89,51,40,10.36,scattered clouds
26,Kodiak,US,57.79,-152.4072,54.91,88,100,9.22,light rain
27,Hilo,US,19.7297,-155.09,79.29,100,100,1.99,moderate rain
28,Nikolayevka,RU,53.1257,47.2041,74.52,64,46,3.31,scattered clouds
29,Lima,PE,-12.0432,-77.0282,62.91,77,100,8.05,overcast clouds
30,Rikitea,PF,-23.1203,-134.9692,71.91,79,100,19.28,light rain
31,Tigil,RU,57.8,158.6667,54.99,84,2,1.86,clear sky
32,Nanortalik,GL,60.1432,-45.2371,41.88,87,100,2.13,overcast clouds
33,Bredasdorp,ZA,-34.5322,20.0403,65.01,53,44,3.13,scattered clouds
34,Atuona,PF,-9.8,-139.0333,76.41,78,24,13.18,light rain
35,Mount Isa,AU,-20.7333,139.5,44.37,81,0,0.0,clear sky
36,Mattru,SL,7.6244,-11.8332,79.7,85,71,5.84,moderate rain
37,Faanui,PF,-16.4833,-151.75,77.04,69,23,25.5,light rain
38,Port Lincoln,AU,-34.7333,135.8667,56.01,85,22,15.52,few clouds
39,Anadyr,RU,64.75,177.4833,55.9,71,20,11.18,few clouds
40,Cidreira,BR,-30.1811,-50.2056,67.48,89,100,4.23,overcast clouds
41,Hasaki,JP,35.7333,140.8333,72.28,97,100,15.64,light rain
42,Chalmette,US,29.9427,-89.9634,90.99,68,70,4.0,broken clouds
43,Saint-Pierre,RE,-21.3393,55.4781,68.92,80,75,20.71,broken clouds
44,Beringovskiy,RU,63.05,179.3167,49.91,78,83,7.09,broken clouds
45,Kaitangata,NZ,-46.2817,169.8464,37.44,74,12,7.76,few clouds
46,Mahon,ES,39.8885,4.2658,90.16,45,0,6.91,clear sky
47,Mayo,US,38.8876,-76.5119,87.67,77,100,4.0,overcast clouds
48,Erenhot,CN,43.6475,111.9767,74.79,51,52,18.3,broken clouds
49,Salalah,OM,17.0151,54.0924,77.68,95,100,6.49,overcast clouds
50,Barrow,US,71.2906,-156.7887,36.07,78,57,3.33,broken clouds
51,Cape Town,ZA,-33.9258,18.4232,77.41,42,0,4.61,clear sky
52,Ponta Do Sol,PT,32.6667,-17.1,78.12,71,18,8.16,few clouds
53,Butaritari,KI,3.0707,172.7902,78.06,86,100,11.21,light rain
54,Ust-Kuyga,RU,70.0167,135.6,45.82,82,88,5.41,overcast clouds
55,Vaini,TO,-21.2,-175.2,69.96,100,20,3.44,few clouds
56,Hermanus,ZA,-34.4187,19.2345,66.79,53,17,1.68,few clouds
57,Fortuna,US,40.5982,-124.1573,61.93,91,100,3.0,overcast clouds
58,Pirenopolis,BR,-15.8525,-48.9592,82.89,21,70,3.27,broken clouds
59,Bambous Virieux,MU,-20.3428,57.7575,70.21,73,40,10.36,scattered clouds
60,Comodoro Rivadavia,AR,-45.8667,-67.5,37.26,65,0,9.22,clear sky
61,Pevek,RU,69.7008,170.3133,33.08,94,100,7.76,overcast clouds
62,Solton,RU,52.8429,86.4787,58.57,82,71,2.13,broken clouds
63,Nerchinskiy Zavod,RU,51.3088,119.61,61.57,92,100,3.22,overcast clouds
64,Tasiilaq,GL,65.6145,-37.6368,43.75,74,100,3.65,overcast clouds
65,Leshukonskoye,RU,64.8989,45.7622,67.1,70,63,8.59,broken clouds
66,Thompson,CA,55.7435,-97.8558,73.56,49,40,2.3,smoke
67,Tiksi,RU,71.6872,128.8694,44.62,82,99,3.31,overcast clouds
68,Tuatapere,NZ,-46.1333,167.6833,41.54,91,94,6.33,overcast clouds
69,Sao Felix Do Xingu,BR,-6.6447,-51.995,95.07,27,9,4.68,clear sky
70,Alofi,NU,-19.0595,-169.9187,71.49,88,73,5.75,broken clouds
71,Husavik,IS,66.0449,-17.3389,56.23,71,79,5.37,broken clouds
72,Bethel,US,41.3712,-73.414,79.47,47,100,5.48,light rain
73,Georgetown,MY,5.4112,100.3354,83.89,86,20,0.0,few clouds
74,Yellowknife,CA,62.456,-114.3525,63.12,72,20,0.0,few clouds
75,Samaipata,BO,-18.15,-63.8667,67.28,60,100,6.53,overcast clouds
76,Sayyan,YE,15.1718,44.3244,67.66,48,96,6.58,overcast clouds
77,Sao Filipe,CV,14.8961,-24.4956,76.14,81,14,5.66,few clouds
78,Iqaluit,CA,63.7506,-68.5145,58.73,58,100,20.71,overcast clouds
79,Kruisfontein,ZA,-34.0033,24.7314,71.89,26,0,6.73,clear sky
80,Proletarskiy,RU,50.7914,35.7731,66.33,64,92,9.78,overcast clouds
81,Victoria,HK,22.2855,114.1577,87.85,80,100,11.99,overcast clouds
82,Port Elizabeth,ZA,-33.918,25.5701,77.29,31,0,6.91,clear sky
83,Marzuq,YE,14.4,46.4667,93.02,20,100,9.55,overcast clouds
84,Saint Anthony,US,45.0205,-93.218,85.17,67,75,4.61,broken clouds
85,Oktyabrskiy,RU,54.4815,53.471,69.69,79,0,3.36,clear sky
86,Ozernovskiy,RU,51.5,156.5167,53.51,97,95,0.78,overcast clouds
87,Saint-Philippe,RE,-21.3585,55.7679,67.59,75,65,12.12,broken clouds
88,Kapaa,US,22.0752,-159.319,74.19,92,39,13.18,light rain
89,Ust-Tsilma,RU,65.441,52.1498,76.42,49,99,4.07,overcast clouds
90,Yar-Sale,RU,66.8333,70.8333,60.89,56,22,7.7,few clouds
91,Mount Gambier,AU,-37.8333,140.7667,53.51,94,75,10.36,shower rain
92,Sao Jose Da Coroa Grande,BR,-8.8978,-35.1478,78.1,80,42,14.81,scattered clouds
93,Alamogordo,US,32.8995,-105.9603,87.57,32,0,6.91,clear sky
94,Dordrecht,NL,51.81,4.6736,74.98,51,17,5.01,few clouds
95,Namibe,AO,-15.1961,12.1522,68.32,83,3,9.31,clear sky
96,Narsaq,GL,60.9167,-46.05,41.79,89,100,4.83,overcast clouds
97,Avera,US,33.194,-82.5271,87.55,54,83,2.95,broken clouds
98,Kalabo,ZM,-14.97,22.6814,72.19,25,0,5.97,clear sky
99,Saskylakh,RU,71.9167,114.0833,53.42,67,39,9.53,scattered clouds
100,Manokwari,ID,-0.8667,134.0833,77.76,82,87,3.94,overcast clouds
101,Manta,EC,-0.95,-80.7333,74.98,78,100,8.05,overcast clouds
102,Sao Joaquim Do Monte,BR,-8.4325,-35.8044,73.33,82,85,14.2,overcast clouds
103,San Quintin,MX,30.4833,-115.95,70.74,73,1,7.45,clear sky
104,Punta Arenas,CL,-53.15,-70.9167,32.11,93,75,8.05,broken clouds
105,New Norfolk,AU,-42.7826,147.0587,49.5,76,99,1.01,heavy intensity rain
106,Chifeng,CN,42.2683,118.9636,67.93,85,89,1.36,overcast clouds
107,Alihe,CN,50.5667,123.7167,63.19,96,99,2.1,overcast clouds
108,Cayenne,GF,4.9333,-52.3333,86.04,1,100,3.44,overcast clouds
109,Airai,TL,-8.9266,125.4092,54.19,85,43,3.44,scattered clouds
110,Nikolskoye,RU,59.7035,30.7861,64.87,60,43,7.27,scattered clouds
111,Klaksvik,FO,62.2266,-6.589,52.72,97,100,16.91,light rain
112,Longyearbyen,SJ,78.2186,15.6401,58.84,58,20,17.27,few clouds
113,Vostok,RU,46.4856,135.8833,56.84,97,100,3.18,overcast clouds
114,Flin Flon,CA,54.7682,-101.865,78.64,61,100,4.61,smoke
115,Palu,ID,-0.8917,119.8707,76.75,95,100,3.33,overcast clouds
116,Atbasar,KZ,51.8,68.3333,71.19,67,32,18.1,scattered clouds
117,Talnakh,RU,69.4865,88.3972,70.21,46,12,6.55,few clouds
118,Saint George,US,37.1041,-113.5841,93.79,28,0,1.99,clear sky
119,Ribeira Grande,PT,38.5167,-28.7,79.2,69,20,5.75,few clouds
120,Dikson,RU,73.5069,80.5464,47.52,72,36,7.9,scattered clouds
121,Bluff,NZ,-46.6,168.3333,41.81,82,72,15.1,broken clouds
122,Tuktoyaktuk,CA,69.4541,-133.0374,55.4,67,75,12.66,broken clouds
123,Isangel,VU,-19.55,169.2667,68.11,88,100,0.0,overcast clouds
124,Mar Del Plata,AR,-38.0023,-57.5575,49.08,80,100,17.27,light intensity drizzle
125,Cabo San Lucas,MX,22.8909,-109.9124,86.61,64,52,6.42,broken clouds
126,Superior,US,46.7208,-92.1041,82.62,71,0,5.75,clear sky
127,Cherskiy,RU,68.75,161.3,36.7,88,9,8.03,clear sky
128,Teyateyaneng,LS,-29.1472,27.7489,50.58,33,0,1.72,clear sky
129,Tymovskoye,RU,50.8456,142.655,49.15,99,36,4.92,scattered clouds
130,Saldanha,ZA,-33.0117,17.9442,75.25,58,28,8.32,scattered clouds
131,Hambantota,LK,6.1241,81.1185,82.74,83,20,9.22,few clouds
132,Cacimba De Dentro,BR,-6.6417,-35.79,76.1,73,85,15.84,overcast clouds
133,Bengkulu,ID,-3.8004,102.2655,77.34,86,100,3.85,overcast clouds
134,Bainbridge,US,47.6262,-122.5212,66.51,81,95,5.01,overcast clouds
135,Lhokseumawe,ID,5.1801,97.1507,79.48,83,79,2.19,broken clouds
136,San Pedro,PH,14.35,121.0167,76.35,93,40,3.44,scattered clouds
137,Pocoes,BR,-14.5297,-40.3653,73.67,57,71,7.67,broken clouds
138,Pangnirtung,CA,66.1451,-65.7125,53.6,66,20,14.97,few clouds
139,Majene,ID,-3.5403,118.9707,78.17,87,100,11.25,overcast clouds
140,Hami,CN,42.8,93.45,87.64,15,100,8.61,overcast clouds
141,Abha,SA,18.2164,42.5053,76.82,44,40,11.5,scattered clouds
142,Yatou,CN,37.15,122.3833,74.26,73,90,1.5,overcast clouds
143,Vazante,BR,-17.9869,-46.9078,82.74,29,35,7.18,scattered clouds
144,Poso,ID,-1.3959,120.7524,76.39,88,99,4.34,overcast clouds
145,Hobart,AU,-42.8794,147.3294,49.86,75,40,11.5,scattered clouds
146,Qaanaaq,GL,77.484,-69.3632,54.12,54,12,3.51,few clouds
147,Chokurdakh,RU,70.6333,147.9167,43.81,84,53,8.75,broken clouds
148,Bilkha,IN,21.4333,70.6,79.97,89,67,18.43,broken clouds
149,Marstal,DK,54.8562,10.5173,64.31,59,2,23.02,clear sky
150,Arraial Do Cabo,BR,-22.9661,-42.0278,82.36,57,0,10.36,clear sky
151,Cabedelo,BR,-6.9811,-34.8339,79.47,82,80,18.81,broken clouds
152,Grand Gaube,MU,-20.0064,57.6608,70.38,70,11,5.01,few clouds
153,Jaciara,BR,-15.9653,-54.9683,95.22,22,97,8.37,overcast clouds
154,Camacha,PT,33.0833,-16.3333,72.82,64,40,9.22,scattered clouds
155,The Valley,AI,18.217,-63.0578,86.14,70,40,17.27,scattered clouds
156,Kapoeta,SS,4.7717,33.5903,82.44,49,99,3.89,overcast clouds
157,Okha,RU,53.5739,142.9478,52.63,90,56,13.73,broken clouds
158,Kununurra,AU,-15.7667,128.7333,53.58,87,13,3.44,few clouds
159,Bichura,RU,50.5881,107.6022,53.35,78,2,2.68,clear sky
160,Palafrugell,ES,41.9174,3.1631,94.33,46,0,3.0,clear sky
161,Castro,BR,-24.7911,-50.0119,74.68,48,72,15.28,broken clouds
162,Victor Harbor,AU,-35.5667,138.6167,55.0,90,69,1.99,broken clouds
163,Srednekolymsk,RU,67.45,153.6833,55.11,73,98,7.25,overcast clouds
164,Vieste,IT,41.8825,16.175,83.21,50,0,8.57,clear sky
165,Magadan,RU,59.5667,150.8,56.53,97,99,4.76,overcast clouds
166,Lata,PT,40.1629,-8.3327,89.49,45,100,9.91,overcast clouds
167,Suixi,CN,33.8907,116.7747,78.85,93,100,2.57,light rain
168,Limon,CR,10.0,-83.0333,80.49,83,40,6.91,scattered clouds
169,Quatre Cocos,MU,-20.2078,57.7625,70.09,66,4,15.1,clear sky
170,Ambovombe,MG,-25.1667,46.0833,67.78,78,6,18.68,clear sky
171,Vila Velha,BR,-20.3297,-40.2925,84.15,60,20,13.8,few clouds
172,Codrington,AU,-38.2667,141.9667,53.65,86,100,18.34,light rain
173,Panalingaan,PH,8.7842,117.4231,79.5,83,51,1.97,broken clouds
174,Opuwo,NA,-18.0607,13.84,75.88,19,0,11.01,clear sky
175,Srandakan,ID,-7.9386,110.2506,76.55,88,62,6.96,broken clouds
176,Provideniya,RU,64.3833,-173.3,48.92,62,100,4.74,overcast clouds
177,Takoradi,GH,4.8845,-1.7554,77.02,82,100,12.3,overcast clouds
178,Sakakah,SA,29.9697,40.2064,101.57,11,0,6.17,clear sky
179,Kone,NC,-21.0595,164.8658,60.49,75,12,4.61,few clouds
180,Carnarvon,AU,-24.8667,113.6333,68.27,50,77,7.14,broken clouds
181,Sibolga,ID,1.7427,98.7792,77.4,81,100,4.34,overcast clouds
182,Mandalgovi,MN,45.7625,106.2708,60.13,56,3,8.9,clear sky
183,Ostersund,SE,63.1792,14.6357,54.61,76,75,21.85,broken clouds
184,Vestmannaeyjar,IS,63.4427,-20.2734,51.75,84,91,15.99,overcast clouds
185,Kulhudhuffushi,MV,6.6221,73.07,82.09,80,50,10.0,light rain
186,Guerrero Negro,MX,27.9769,-114.0611,71.64,68,16,10.65,few clouds
187,Lebu,CL,-37.6167,-73.65,47.43,77,96,11.88,light rain
188,Komsomolskiy,UZ,40.4272,71.7189,90.32,23,0,4.61,clear sky
189,Surt,LY,31.2089,16.5887,80.87,57,0,11.97,clear sky
190,Yekaterinoslavka,RU,50.3734,129.1139,63.46,91,88,7.05,overcast clouds
191,Yaan,NG,7.3833,8.5667,81.03,72,96,8.99,light rain
192,La Asuncion,VE,11.0333,-63.8628,82.51,73,33,12.57,scattered clouds
193,Bougouni,ML,11.417,-7.479,85.59,58,91,5.44,overcast clouds
194,Marsa Matruh,EG,31.3525,27.2453,80.96,62,0,12.08,clear sky
195,Otane,NZ,-39.8833,176.6333,36.39,91,8,2.33,clear sky
196,Touros,BR,-5.1989,-35.4608,82.56,69,46,17.43,scattered clouds
197,Fuxin,CN,42.0156,121.6589,72.14,74,96,3.09,overcast clouds
198,Upernavik,GL,72.7868,-56.1549,48.56,58,71,4.47,broken clouds
199,Agropoli,IT,40.3469,14.9966,86.09,61,0,6.33,clear sky
200,Male,MV,4.1748,73.5089,83.34,74,35,7.11,scattered clouds
201,Kasongo-Lunda,CD,-6.4667,16.8167,93.69,18,1,3.98,clear sky
202,Oruro,BO,-17.9833,-67.15,45.79,12,0,3.4,clear sky
203,Koulamoutou,GA,-1.1303,12.4736,93.85,28,79,2.95,broken clouds
204,Dembi Dolo,ET,8.5333,34.8,59.09,94,95,2.19,light rain
205,Hobyo,SO,5.3505,48.5268,78.71,67,96,30.2,overcast clouds
206,Dedovichi,RU,57.5517,29.9502,64.33,56,70,5.17,broken clouds
207,Kutum,SD,14.2,24.6667,86.4,31,80,13.42,broken clouds
208,Katsuura,JP,35.1333,140.3,75.22,95,100,12.86,moderate rain
209,Almaty,KZ,43.25,76.95,76.91,31,20,4.47,few clouds
210,San Julian,MX,21.0167,-102.1667,67.23,60,100,7.34,overcast clouds
211,Dresden,DE,51.0509,13.7383,74.17,42,0,12.66,clear sky
212,Kyra,RU,49.5776,111.9753,54.34,91,100,5.26,moderate rain
213,Maceio,BR,-9.6658,-35.7353,76.44,88,75,10.36,broken clouds
214,Lebanon,US,36.2081,-86.2911,92.95,52,0,6.91,clear sky
215,Oranjemund,NA,-28.55,16.4333,73.24,31,1,9.69,clear sky
216,Aykhal,RU,66.0,111.5,53.13,87,100,16.15,overcast clouds
217,Sines,PT,37.9562,-8.8698,73.29,70,85,4.0,overcast clouds
218,Chuy,UY,-33.6971,-53.4616,51.28,94,100,13.98,overcast clouds
219,Bermejo,AR,-32.8833,-68.8,44.67,47,2,11.03,clear sky
220,Lagoa,PT,39.05,-27.9833,70.36,87,0,9.6,clear sky
221,Bilibino,RU,68.0546,166.4372,48.61,92,22,1.63,few clouds
222,Sola,VU,-13.8833,167.55,79.97,76,60,27.74,light rain
223,Isiro,CD,2.7739,27.616,72.28,85,63,2.73,light rain
224,Paris,FR,48.8534,2.3488,86.95,30,0,11.5,clear sky
225,Basco,PH,20.4487,121.9702,85.05,83,100,16.28,overcast clouds
226,Baykit,RU,61.67,96.37,52.41,95,72,1.72,broken clouds
227,Tripoli,LY,32.8752,13.1875,82.85,54,0,16.93,clear sky
228,Zeya,RU,53.75,127.2667,65.77,92,26,2.44,scattered clouds
229,Limbang,MY,4.75,115.0,84.31,86,92,0.76,heavy intensity rain
230,Cap Malheureux,MU,-19.9842,57.6142,70.47,70,11,5.01,few clouds
231,Geraldton,AU,-28.7667,114.6,54.01,87,100,6.91,overcast clouds
232,Broome,US,42.2506,-75.833,79.68,69,100,5.01,overcast clouds
233,Vanimo,PG,-2.6741,141.3028,78.33,89,90,7.74,light rain
234,Dekar,BW,-21.5333,21.9333,62.64,27,0,8.93,clear sky
235,Arlit,NE,18.7369,7.3853,83.5,53,41,20.58,light rain
236,Jamestown,US,42.097,-79.2353,75.52,49,100,4.61,overcast clouds
237,Sorland,NO,67.667,12.6934,55.26,82,100,11.43,overcast clouds
238,Banamba,ML,13.55,-7.45,97.12,33,75,8.39,broken clouds
239,Severo-Kurilsk,RU,50.6789,156.125,52.92,97,99,4.9,overcast clouds
240,Namatanai,PG,-3.6667,152.4333,78.94,83,66,6.17,light rain
241,Constitucion,CL,-35.3333,-72.4167,50.14,72,72,6.22,moderate rain
242,Dothan,US,31.2232,-85.3905,86.32,72,45,1.01,scattered clouds
243,Reconquista,AR,-29.15,-59.65,48.18,90,100,17.47,overcast clouds
244,Sinnamary,GF,5.3833,-52.95,84.7,68,17,7.11,few clouds
245,Omboue,GA,-1.5746,9.2618,74.41,79,98,8.72,overcast clouds
246,Henties Bay,NA,-22.116,14.2845,71.69,42,0,8.59,clear sky
247,Souillac,MU,-20.5167,57.5167,70.43,67,0,14.72,clear sky
248,Springbok,ZA,-29.6643,17.8865,64.17,23,0,7.18,clear sky
249,Aklavik,CA,68.2191,-135.0107,55.27,55,100,14.05,overcast clouds
250,Yerbogachen,RU,61.2767,108.0108,56.14,76,92,3.22,overcast clouds
251,Avarua,CK,-21.2078,-159.775,71.65,83,75,16.11,light rain
252,Newport,GB,51.5877,-2.9984,85.12,42,70,1.72,broken clouds
253,Kilindoni,TZ,-7.9139,39.6668,76.32,69,96,17.74,overcast clouds
254,Santa Vitoria Do Palmar,BR,-33.5189,-53.3681,51.85,94,100,15.7,overcast clouds
255,Taltal,CL,-25.4,-70.4833,61.03,42,0,8.63,clear sky
256,Chivacoa,VE,10.1603,-68.895,90.43,47,73,3.49,broken clouds
257,Dalbandin,PK,28.8947,64.4101,96.46,28,50,15.39,scattered clouds
258,Bereznik,RU,62.8551,42.7072,64.35,76,50,5.39,light rain
259,Znamensk,RU,48.5842,45.7338,86.07,26,48,11.92,scattered clouds
260,San Felipe,VE,10.3399,-68.7425,90.75,48,66,2.1,broken clouds
261,Ixtapa,MX,20.7,-105.2,83.23,75,92,1.01,overcast clouds
262,Mitsamiouli,KM,-11.3847,43.2844,76.66,71,20,13.56,few clouds
263,Krasnoselkup,RU,65.7,82.4667,57.94,76,80,11.32,light rain
264,Batagay-Alyta,RU,67.8006,130.4114,48.65,84,89,3.91,overcast clouds
265,Coihaique,CL,-45.5752,-72.0662,34.63,87,100,7.0,overcast clouds
266,Antalaha,MG,-14.9003,50.2788,70.2,78,7,12.33,clear sky
267,Santiago De Las Vegas,CU,22.97,-82.3869,85.91,58,67,6.51,broken clouds
268,Neuquen,AR,-38.9516,-68.0591,44.31,53,58,13.62,broken clouds
269,Tatawin,TN,32.9297,10.4518,90.68,24,0,15.5,clear sky
270,Romitan,UZ,39.9343,64.3814,91.35,25,0,9.22,clear sky
271,Ilulissat,GL,69.2167,-51.1,39.24,84,57,5.91,broken clouds
272,Fort Nelson,CA,58.8053,-122.7002,56.79,100,75,5.75,light intensity shower rain
273,Bandarbeyla,SO,9.4942,50.8122,78.78,74,82,34.27,broken clouds
274,Portland,US,45.5234,-122.6762,66.52,82,59,3.0,broken clouds
275,Ostrovnoy,RU,68.0531,39.5131,65.12,79,99,5.1,light rain
276,Port Hawkesbury,CA,45.6169,-61.3485,81.91,64,64,8.99,broken clouds
277,Fort Smith,US,35.3859,-94.3986,90.34,52,73,2.8,broken clouds
278,Shakhtinsk,KZ,49.71,72.5872,82.36,29,24,11.63,few clouds
279,Buta,CD,2.7858,24.73,77.92,84,81,1.63,light rain
280,Puerto Escondido,MX,15.85,-97.0667,84.67,69,93,3.67,light rain
281,Dingle,PH,10.9995,122.6711,77.49,90,100,1.59,overcast clouds
282,Hofn,IS,64.2539,-15.2082,51.1,95,100,8.03,overcast clouds
283,Mahibadhoo,MV,3.7833,72.9667,83.25,75,39,7.96,scattered clouds
284,Hamilton,US,39.1834,-84.5333,85.95,62,72,4.0,broken clouds
285,Porsa,IN,26.67,78.3747,95.45,43,68,5.03,broken clouds
286,Maragogi,BR,-9.0122,-35.2225,77.99,80,50,14.72,scattered clouds
287,Tvoroyri,FO,61.5556,-6.8111,52.27,98,100,22.97,light rain
288,Viedma,AR,-40.8135,-62.9967,46.2,55,68,14.65,broken clouds
289,Kedrovyy,RU,56.1667,91.8167,52.21,94,98,4.63,light rain
290,Alyangula,AU,-13.8483,136.4192,65.44,74,7,8.37,clear sky
291,Batagay,RU,67.6333,134.6333,51.89,80,88,3.98,overcast clouds
292,Barmer,IN,25.75,71.3833,90.68,58,95,9.4,overcast clouds
293,Hokitika,NZ,-42.7167,170.9667,44.42,77,100,4.21,overcast clouds
294,Bubaque,GW,11.2833,-15.8333,80.85,81,15,12.88,light rain
295,Owosso,US,42.9978,-84.1766,76.21,80,100,4.61,overcast clouds
296,Mayumba,GA,-3.432,10.6554,73.92,81,86,7.47,overcast clouds
297,Leningradskiy,RU,69.3833,178.4167,34.83,89,100,10.42,snow
298,Spearfish,US,44.4908,-103.8594,83.86,50,0,5.75,clear sky
299,Shache,CN,38.4167,77.2406,84.88,18,99,2.21,overcast clouds
300,Dharchula,IN,29.85,80.5333,75.34,90,79,2.8,broken clouds
301,Alice Springs,AU,-23.7,133.8833,38.75,35,5,5.75,clear sky
302,Cape Canaveral,US,28.4058,-80.6048,89.02,76,89,9.82,overcast clouds
303,Jos,NG,9.9167,8.9,69.75,84,100,6.49,light rain
304,Nanakuli,US,21.3906,-158.1547,77.99,79,43,13.87,scattered clouds
305,Montepuez,MZ,-13.1256,38.9997,73.22,46,73,10.36,broken clouds
306,Steamboat Springs,US,40.485,-106.8317,71.35,72,75,5.75,broken clouds
307,Lexington,US,37.9887,-84.4777,82.94,58,63,1.01,broken clouds
308,Makakilo City,US,21.3469,-158.0858,76.57,72,39,16.67,scattered clouds
309,San Andres,CO,12.5847,-81.7006,82.63,75,7,14.18,clear sky
310,Gidam,IN,18.9833,81.4,75.11,96,100,3.47,overcast clouds
311,Mecca,SA,21.4267,39.8261,94.3,22,67,12.12,broken clouds
312,Pacific Grove,US,36.6177,-121.9166,59.43,97,1,5.99,clear sky
313,Nioro,GM,13.35,-15.75,91.0,54,87,8.21,overcast clouds
314,Garmsar,IR,35.2182,52.3409,95.09,13,0,0.45,clear sky
315,Esperance,AU,-33.8667,121.9,57.31,70,100,3.65,overcast clouds
316,Vila Do Maio,CV,15.1333,-23.2167,76.6,80,13,5.06,few clouds
317,Kazerun,IR,29.6195,51.6541,91.35,20,3,6.6,clear sky
318,Nome,US,64.5011,-165.4064,43.16,87,0,3.96,clear sky
319,Kahului,US,20.8947,-156.47,77.85,89,70,14.0,broken clouds
320,Matagami,CA,49.7502,-77.6328,72.45,56,100,6.58,overcast clouds
321,Hovd,MN,48.0056,91.6419,67.39,42,42,3.13,scattered clouds
322,Kavaratti,IN,10.5669,72.642,81.75,85,100,15.46,overcast clouds
323,Uvelskiy,RU,54.4446,61.3574,66.38,81,5,10.92,clear sky
324,Sabang,ID,5.8933,95.3214,82.78,78,79,17.18,broken clouds
325,Beibei,CN,29.8256,106.4339,82.47,87,82,1.5,broken clouds
326,Sarangani,PH,5.4033,125.4636,80.26,81,100,4.9,overcast clouds
327,Bambanglipuro,ID,-7.95,110.2833,76.42,88,61,7.23,broken clouds
328,Abu Dhabi,AE,24.4667,54.3667,104.11,49,100,9.22,overcast clouds
329,Miyako,JP,39.6367,141.9525,70.63,97,100,3.22,overcast clouds
330,Waddan,LY,29.1614,16.139,93.16,14,0,11.45,clear sky
331,Sijunjung,ID,-0.6876,100.9537,72.91,90,76,2.15,broken clouds
332,Praia Da Vitoria,PT,38.7333,-27.0667,78.76,75,6,13.51,clear sky
333,Kavieng,PG,-2.5744,150.7967,80.62,81,5,10.69,light rain
334,Tommot,RU,58.9564,126.2925,67.48,86,46,2.53,scattered clouds
335,Punta Alta,AR,-38.8759,-62.0736,47.41,59,96,15.79,overcast clouds
336,Puerto Cabezas,NI,14.0351,-83.3888,87.76,74,75,9.22,broken clouds
337,Adrar,MR,20.5022,-10.0711,110.52,6,29,23.26,scattered clouds
338,Rondonopolis,BR,-16.4708,-54.6356,96.76,21,94,7.9,overcast clouds
339,Thio,NC,-21.6167,166.2167,64.36,73,0,13.04,clear sky
340,Kefamenanu,ID,-9.4467,124.4781,63.07,90,70,4.21,broken clouds
341,Chontalpa,MX,17.7,-93.5167,81.48,77,87,3.96,overcast clouds
342,Porangatu,BR,-13.4408,-49.1486,95.23,19,21,4.18,few clouds
343,Berbera,SO,10.4396,45.0143,95.23,37,96,26.11,overcast clouds
344,Tam Ky,VN,15.5667,108.4833,79.72,90,100,4.38,overcast clouds
345,Ibra,OM,22.6906,58.5334,85.23,60,100,10.65,overcast clouds
346,Necochea,AR,-38.5473,-58.7368,47.64,75,100,25.1,overcast clouds
347,Talaya,RU,61.3833,152.75,64.47,84,98,3.69,light rain
348,Port Hardy,CA,50.6996,-127.4199,53.78,100,75,0.0,mist
349,Qaqortoq,GL,60.7167,-46.0333,41.83,86,100,2.8,overcast clouds
350,Lompoc,US,34.6391,-120.4579,57.61,92,100,0.0,overcast clouds
351,Yangcun,CN,39.3639,117.0603,78.78,72,23,5.61,few clouds
352,Luderitz,NA,-26.6481,15.1594,72.59,35,0,2.37,clear sky
353,Teguldet,RU,57.3064,88.1667,56.46,67,90,1.95,overcast clouds
354,Te Anau,NZ,-45.4167,167.7167,42.13,90,99,6.4,overcast clouds
355,Ketchikan,US,55.3422,-131.6461,55.38,96,100,2.44,overcast clouds
356,Jiquilisco,SV,13.3167,-88.5833,86.59,59,92,1.92,overcast clouds
357,Pierre,US,44.3683,-100.351,74.86,85,100,1.99,overcast clouds
358,Waw,SS,7.7029,27.9953,81.28,64,53,4.0,broken clouds
359,Golden,US,39.7555,-105.2211,85.48,43,40,8.05,scattered clouds
360,Asau,RO,46.4333,26.4,81.52,29,9,11.01,clear sky
361,Bathsheba,BB,13.2167,-59.5167,77.61,94,75,21.85,broken clouds
362,Grindavik,IS,63.8424,-22.4338,54.07,82,75,16.11,broken clouds
363,Santa Fe,AR,-31.6333,-60.7,51.03,78,100,13.0,moderate rain
364,Roald,NO,62.5833,6.1333,58.15,71,75,10.36,broken clouds
365,Half Moon Bay,US,37.4636,-122.4286,71.91,84,100,5.75,mist
366,Banda,IN,25.4833,80.3333,96.62,39,36,3.74,scattered clouds
367,Paamiut,GL,61.994,-49.6678,40.39,86,100,8.63,overcast clouds
368,Shetpe,KZ,44.1667,52.1167,99.48,14,0,9.62,clear sky
369,Yola,NG,9.2,12.4833,83.95,69,94,3.27,light rain
370,Evensk,RU,61.95,159.2333,52.79,85,99,4.5,overcast clouds
371,Buala,SB,-8.145,159.5921,79.0,83,90,10.0,light rain
372,Auriflama,BR,-20.6856,-50.5547,90.19,23,95,13.87,overcast clouds
373,Kuryk,KZ,43.2,51.65,90.3,30,0,7.36,clear sky
374,Prabumulih,ID,-3.45,104.25,74.12,93,96,2.86,overcast clouds
375,Nanchang,CN,28.6833,115.8833,87.67,66,100,8.37,light rain
376,Coquimbo,CL,-29.9533,-71.3436,53.87,56,0,3.98,clear sky
377,Peruibe,BR,-24.32,-46.9983,88.38,35,96,6.6,overcast clouds
378,Tarauaca,BR,-8.1614,-70.7656,89.35,52,46,2.75,scattered clouds
379,Uglovskoye,RU,51.3557,80.1942,71.83,54,27,7.52,scattered clouds
380,Brae,GB,60.3964,-1.353,52.41,92,100,16.91,overcast clouds
381,East London,ZA,-33.0153,27.9116,68.25,62,50,12.55,scattered clouds
382,Tacuarembo,UY,-31.7333,-55.9833,50.32,95,100,14.09,overcast clouds
383,Scunthorpe,GB,53.579,-0.6544,82.09,52,62,7.0,broken clouds
384,Sistranda,NO,63.7256,8.834,51.76,79,100,22.3,overcast clouds
385,Plettenberg Bay,ZA,-34.0527,23.3716,67.01,45,1,5.26,clear sky
386,Flinders,AU,-34.5833,150.8552,53.38,61,0,5.99,clear sky
387,Le Port,RE,-20.9373,55.2919,69.76,69,42,3.02,scattered clouds
388,Acajutla,SV,13.5928,-89.8275,84.92,61,100,1.97,overcast clouds
389,Kaeo,NZ,-35.1,173.7833,45.32,95,13,4.59,few clouds
390,Lisala,CD,2.15,21.5167,76.12,82,100,2.01,overcast clouds
391,Nouadhibou,MR,20.931,-17.0347,75.18,73,5,19.57,clear sky
392,Gambela,ET,8.25,34.5833,76.39,75,99,2.44,overcast clouds
393,Kuruman,ZA,-27.4524,23.4325,61.0,37,0,6.24,clear sky
394,Pokhara,NP,28.2333,83.9833,75.49,82,83,4.47,broken clouds
395,Mapiripan,CO,2.8892,-72.1256,84.31,66,100,6.62,overcast clouds
396,Belyy Yar,RU,53.6039,91.3903,64.29,63,0,2.24,light rain
397,Kara,TG,9.5511,1.1861,78.13,83,100,3.78,moderate rain
398,Kutiyana,IN,21.6233,69.9817,81.91,89,69,21.9,light rain
399,Ulaangom,MN,49.9811,92.0667,62.51,48,31,3.36,scattered clouds
400,San Juan,AR,-31.5375,-68.5364,45.9,49,6,8.63,clear sky
401,Mehamn,NO,71.0357,27.8492,51.75,93,100,10.36,overcast clouds
402,Porto Novo,BJ,6.4965,2.6036,79.5,74,100,12.28,overcast clouds
403,Taloqan,AF,36.7361,69.5345,84.07,17,0,2.93,clear sky
404,Moose Factory,CA,51.2585,-80.6094,76.59,40,81,7.72,broken clouds
405,Bar-Le-Duc,FR,48.75,5.1667,82.22,23,3,10.2,clear sky
406,Hyeres,FR,43.1167,6.1167,95.67,63,20,10.36,few clouds
407,Nhulunbuy,AU,-12.2333,136.7667,72.21,73,40,12.66,scattered clouds
408,Sassandra,CI,4.95,-6.0833,77.14,86,98,11.03,light rain
409,Rumford,US,44.5537,-70.5509,81.95,52,100,4.07,overcast clouds
410,Harper,LR,4.375,-7.7169,77.77,77,98,10.71,overcast clouds
411,Mount Darwin,ZW,-16.7725,31.5838,65.34,42,34,10.38,scattered clouds
412,Saint Austell,GB,50.3383,-4.7658,80.44,50,0,11.5,clear sky
413,Biscarrosse,FR,44.3945,-1.1672,100.35,17,0,11.5,clear sky
414,Semey,KZ,50.4111,80.2275,76.75,47,29,7.02,scattered clouds
415,Nyirvasvari,HU,47.8167,22.1868,84.13,20,37,16.33,scattered clouds
416,Bahir Dar,ET,11.5936,37.3908,64.33,85,100,4.29,light rain
417,Amurzet,RU,47.6967,131.0981,63.93,98,100,7.94,overcast clouds
418,Pavlodar,KZ,52.3,76.95,67.8,88,40,6.71,scattered clouds
419,Labranzagrande,CO,5.5622,-72.575,78.73,55,93,6.35,overcast clouds
420,Potosi,BO,-19.5836,-65.7531,49.37,4,0,13.89,clear sky
421,Turukhansk,RU,65.8167,87.9833,57.67,71,61,13.4,broken clouds
422,Egvekinot,RU,66.3167,-179.1667,44.06,89,100,3.96,overcast clouds
423,Manzhouli,CN,49.6,117.4333,63.46,94,100,4.94,overcast clouds
424,Ileza,RU,61.0533,43.9002,65.93,61,80,3.11,broken clouds
425,Aloleng,PH,16.1307,119.7824,78.8,89,100,6.62,light rain
426,Havelock,US,34.8791,-76.9013,82.38,82,75,9.22,thunderstorm
427,La Ronge,CA,55.1001,-105.2842,70.02,78,75,13.8,broken clouds
428,Vila,PT,42.0304,-8.1588,70.68,22,84,4.74,broken clouds
429,Bad Bevensen,DE,53.0833,10.5833,66.65,41,6,13.76,clear sky
430,Lavrentiya,RU,65.5833,-171.0,43.93,73,86,4.92,overcast clouds
431,Fort-Shevchenko,KZ,44.5086,50.263,88.79,44,0,4.72,clear sky
432,Bianzhuang,CN,34.8486,118.0447,76.26,92,100,3.36,overcast clouds
433,Shevchenkove,UA,49.6959,37.1735,68.27,74,99,7.58,overcast clouds
434,Namtsy,RU,62.7161,129.6658,67.32,87,85,3.13,light rain
435,Maumere,ID,-8.6199,122.2111,76.68,79,61,7.14,broken clouds
436,Synya,RU,65.3718,58.0387,70.12,78,96,4.94,light rain
437,Gaoual,GN,11.75,-13.2,88.52,63,79,4.14,broken clouds
438,Mosquera,CO,4.7059,-74.2302,65.73,48,6,4.0,clear sky
439,Lezajsk,PL,50.2626,22.4193,71.92,48,100,3.0,overcast clouds
440,Nsanje,MW,-16.92,35.262,68.47,68,100,4.88,overcast clouds
441,Nuevitas,CU,21.5453,-77.2644,87.96,62,63,9.19,broken clouds
442,Whitehorse,CA,60.7161,-135.0538,55.09,75,100,10.0,overcast clouds
443,Kirakira,SB,-10.4544,161.9205,78.67,82,38,12.3,scattered clouds
444,Ajdabiya,LY,30.7554,20.2263,81.68,53,0,16.37,clear sky
445,Korla,CN,41.7597,86.1469,75.25,43,59,8.75,broken clouds
446,Biak,ID,-0.9131,122.8766,75.16,83,100,4.41,overcast clouds
447,Sitka,US,57.0531,-135.33,55.29,88,100,4.61,overcast clouds
448,Pinheiro Machado,BR,-31.5783,-53.3811,52.05,99,99,1.43,light rain
449,Tsuruga,JP,35.6455,136.0558,72.64,93,99,5.17,overcast clouds
450,Pacifica,US,37.6138,-122.4869,70.72,94,100,10.0,mist
451,Alta Floresta,BR,-9.8756,-56.0861,96.85,29,69,2.68,broken clouds
452,Nara,JP,34.6851,135.8049,77.92,78,100,1.99,light rain
453,Sri Aman,MY,1.2376,111.4621,73.24,98,75,0.47,broken clouds
454,Saint-Augustin,CA,51.226,-58.6502,69.66,42,45,7.94,scattered clouds
455,Belmonte,BR,-15.8631,-38.8828,78.53,58,8,5.84,clear sky
456,Livingston,GB,55.9029,-3.5226,71.2,60,0,10.36,clear sky
457,Kourou,GF,5.1552,-52.6478,86.11,65,25,7.29,scattered clouds
458,Port Hedland,AU,-20.3167,118.5667,55.45,62,77,4.61,broken clouds
459,Rio Gallegos,AR,-51.6226,-69.2181,31.23,68,100,6.53,overcast clouds
460,Ulaanbaatar,MN,47.9077,106.8832,51.49,80,11,3.0,few clouds
461,Laguna,US,38.421,-121.4238,92.08,60,0,1.01,clear sky
462,Edd,ER,13.9297,41.6925,91.38,63,100,10.38,overcast clouds
463,Dunedin,NZ,-45.8742,170.5036,41.81,64,9,4.0,clear sky
464,Safaga,EG,26.7292,33.9365,89.51,40,0,14.58,clear sky
465,Hualmay,PE,-11.0964,-77.6139,63.0,77,72,9.82,broken clouds
466,Teya,RU,60.3778,92.6267,51.39,84,55,2.08,broken clouds
467,Belozerskoye,RU,55.8214,65.5842,64.87,97,76,6.38,light rain
468,Tefe,BR,-3.3542,-64.7114,90.59,52,34,4.61,scattered clouds
469,Yulara,AU,-25.2406,130.9889,52.95,19,20,5.41,few clouds
470,Iquitos,PE,-3.7481,-73.2472,77.04,94,75,0.0,heavy intensity rain
471,Zheleznodorozhnyy,RU,55.7503,38.0042,71.15,51,100,4.61,overcast clouds
472,Ballina,AU,-28.8667,153.5667,51.78,79,1,8.55,clear sky
473,Anicuns,BR,-16.4611,-49.9617,87.66,24,77,4.47,broken clouds
474,Ossora,RU,59.2353,163.0719,54.0,88,54,5.44,broken clouds
475,Manadhoo,MV,5.7667,73.3833,82.53,78,44,7.63,scattered clouds
476,Chara,RU,56.9064,118.2631,63.68,89,89,1.3,overcast clouds
477,Jinchang,CN,38.4953,102.1739,66.94,44,100,8.16,overcast clouds
478,Kaniama,CD,-7.5667,24.1833,83.39,28,8,2.44,clear sky
479,Jacareacanga,BR,-6.2222,-57.7528,95.61,37,12,4.47,few clouds
480,Toropets,RU,56.4978,31.6353,62.24,60,87,4.12,overcast clouds
481,Sadovoye,RU,47.7764,44.5089,87.96,28,49,12.17,scattered clouds
482,Kudahuvadhoo,MV,2.6708,72.8944,83.12,77,27,9.78,scattered clouds
483,Jalu,LY,29.0331,21.5482,95.79,18,0,9.89,clear sky
484,Alexandria,EG,31.2156,29.9553,84.16,61,0,16.11,clear sky
485,Padang,ID,-0.9492,100.3543,78.12,85,76,3.58,broken clouds
486,Bajil,YE,15.0584,43.2851,92.91,42,81,24.2,broken clouds
487,Nizhnyaya Omka,RU,55.4338,74.9426,60.85,80,100,5.23,overcast clouds
488,Atikokan,CA,48.7555,-91.6216,82.09,43,37,3.11,scattered clouds
489,Meulaboh,ID,4.1363,96.1285,78.22,86,84,3.22,broken clouds
490,Santa Maria,BR,-29.6842,-53.8069,66.96,90,100,15.7,overcast clouds
491,Safranbolu,TR,41.2508,32.6942,72.79,62,2,4.74,clear sky
492,Fengrun,CN,39.8333,118.1167,71.78,91,60,1.28,broken clouds
493,Mahebourg,MU,-20.4081,57.7,70.25,66,1,14.76,clear sky
494,Clinton,US,42.587,-82.9199,77.22,75,75,10.36,broken clouds
495,Baruun-Urt,MN,46.6806,113.2792,57.92,88,100,11.54,overcast clouds
496,Raga,SS,8.4596,25.678,80.67,73,33,1.36,scattered clouds
497,Dudinka,RU,69.4058,86.1778,62.22,58,1,10.07,clear sky
498,Pecos,US,31.4229,-103.4932,87.3,39,0,3.44,clear sky
499,Chapais,CA,49.7834,-74.8492,62.38,45,83,13.13,broken clouds
500,Baghdad,IQ,33.3406,44.4009,106.12,10,0,16.6,clear sky
501,Muli,MV,2.9167,73.5667,84.11,74,33,8.75,scattered clouds
502,Ucluelet,CA,48.9329,-125.5528,59.09,94,93,4.25,overcast clouds
503,Melton,AU,-37.6833,144.5833,51.82,80,64,15.84,broken clouds
504,Aguimes,ES,27.9054,-15.4461,74.66,65,20,28.77,few clouds
505,Tocopilla,CL,-22.092,-70.1979,63.88,45,0,6.33,clear sky
506,Kedgwick,CA,47.6446,-67.3434,77.25,36,91,10.58,overcast clouds
507,Bahia De Caraquez,EC,-0.6,-80.4167,75.31,79,97,6.67,overcast clouds
508,Uruzgan,AF,32.8333,66.0,86.65,18,0,7.7,clear sky
509,Rangapara,IN,26.8167,92.65,85.23,79,73,3.27,broken clouds
510,Auki,SB,-8.7676,160.7034,76.15,89,98,5.26,overcast clouds
511,Tarbes,FR,43.25,0.1667,97.27,21,7,9.22,haze
512,Malakal,SS,9.5334,31.6605,81.27,67,72,2.13,broken clouds
513,Ojinaga,MX,29.5667,-104.4167,92.57,48,0,6.91,clear sky
514,Kamaishi,JP,39.2667,141.8833,71.65,97,100,5.61,overcast clouds
515,Dwarka,IN,22.2394,68.9678,83.89,85,97,24.43,light rain
516,Shenjiamen,CN,29.9576,122.298,79.11,92,100,7.05,moderate rain
517,Avanigadda,IN,16.0215,80.9181,86.16,65,100,5.61,overcast clouds
518,Gulariya,NP,28.2333,81.3333,88.18,49,13,6.35,few clouds
519,Ryazan,RU,54.6197,39.74,66.63,63,81,5.08,broken clouds
520,Venezuela,VE,8.0,-66.0,82.85,70,100,8.63,overcast clouds
521,Ust-Nera,RU,64.5667,143.2,66.69,70,29,3.83,scattered clouds
522,Ponnani,IN,10.767,75.9252,74.52,87,99,5.39,overcast clouds
523,Nuuk,GL,64.1835,-51.7216,41.61,87,75,21.85,broken clouds
524,Goba,ET,7.0167,39.9833,52.34,95,67,4.59,light rain
525,Aginskoye,RU,51.1,114.53,59.81,91,100,6.8,light rain
526,Havre-Saint-Pierre,CA,50.2334,-63.5986,62.62,62,72,5.12,broken clouds
527,Chlorakas,CY,34.8042,32.4083,87.55,65,0,17.27,clear sky
528,Magdagachi,RU,53.45,125.8,65.66,94,99,3.13,light rain
529,Zolochiv,UA,49.806,24.8944,68.31,51,80,2.86,broken clouds
530,Verkhnevilyuysk,RU,63.4453,120.3167,64.87,98,60,5.82,broken clouds
531,Rabo De Peixe,PT,37.8,-25.5833,74.71,69,20,11.5,few clouds
532,Manuk Mangkaw,PH,4.8,119.85,82.49,78,77,7.96,broken clouds
533,Paita,PE,-5.0892,-81.1144,68.72,70,12,13.13,few clouds
534,Rolla,US,37.9514,-91.7713,95.23,41,84,8.01,broken clouds
535,Pisco,PE,-13.7,-76.2167,67.01,72,0,4.27,clear sky
536,Enshi,CN,30.3,109.4833,78.71,83,100,2.26,overcast clouds
537,Zirgan,RU,53.2222,55.9185,69.22,85,19,5.59,light rain
538,Merauke,ID,-8.4667,140.3333,75.96,78,100,16.53,overcast clouds
539,Ulundi,ZA,-28.3352,31.4162,59.52,65,0,3.13,clear sky
540,Xiaoweizhai,CN,26.1903,107.5125,74.82,94,100,4.14,overcast clouds
541,Marawi,PH,7.9986,124.2928,69.33,94,100,3.96,overcast clouds
542,Takanabe,JP,32.1333,131.5,74.14,86,62,6.4,broken clouds
543,Port Macquarie,AU,-31.4333,152.9167,43.9,67,73,7.78,broken clouds
544,Horsham,GB,51.064,-0.3272,87.89,45,0,9.22,clear sky
545,Yumen,CN,40.2833,97.2,75.78,27,95,5.14,overcast clouds
546,Moncao,PT,42.0789,-8.4808,81.5,33,99,7.43,overcast clouds
547,Den Chai,TH,17.9837,100.0522,76.69,97,31,2.28,scattered clouds
548,Kingisepp,RU,59.3733,28.6134,60.76,73,77,7.31,broken clouds
549,Karasjok,NO,69.4719,25.5112,51.4,95,100,12.46,light rain
550,Gazli,UZ,40.1333,63.45,98.06,9,0,12.53,clear sky
551,Kuusamo,FI,65.9667,29.1833,66.24,52,0,6.91,clear sky
552,Ninh Binh,VN,20.2539,105.975,83.03,87,91,6.91,overcast clouds
553,Naryan-Mar,RU,67.6713,53.087,68.63,95,93,16.64,heavy intensity rain
554,Snyder,US,32.7179,-100.9176,92.08,40,0,8.05,clear sky
555,Santa Rosa,PH,14.3122,121.1114,77.11,92,100,3.09,overcast clouds
556,Homer,US,59.6425,-151.5483,55.78,96,100,5.01,overcast clouds
557,Maraa,BR,-1.8333,-65.3667,86.31,68,60,4.61,broken clouds
558,Kaupanger,NO,61.1845,7.2404,61.11,53,92,4.52,overcast clouds
559,Tofield,CA,53.3668,-112.6686,70.92,78,3,9.26,clear sky
560,Kargasok,RU,59.0556,80.8572,55.08,91,87,5.88,overcast clouds
561,San Patricio,US,28.017,-97.5169,89.91,49,25,9.46,scattered clouds
562,Aasiaat,GL,68.7098,-52.8699,38.48,89,100,0.54,overcast clouds
563,Australind,AU,-33.2667,115.7167,53.19,84,33,5.73,scattered clouds
564,Ayr,GB,55.4627,-4.6339,67.32,77,20,8.05,few clouds
565,Nagua,DO,19.3832,-69.8474,88.11,70,40,11.5,scattered clouds
566,Arandis,NA,-22.4167,14.9667,81.68,12,0,9.44,clear sky
567,Port-Gentil,GA,-0.7193,8.7815,78.76,73,75,13.8,broken clouds
568,Kavadarci,MK,41.4331,22.0119,95.45,17,0,8.12,clear sky
569,Roscommon,IE,53.6333,-8.1833,73.17,60,100,2.55,overcast clouds
570,Denpasar,ID,-8.65,115.2167,78.46,88,40,10.36,scattered clouds
571,Ewa Beach,US,21.3156,-158.0072,77.99,72,34,5.99,scattered clouds
572,Macheng,CN,31.1783,115.0319,79.92,86,100,3.91,overcast clouds
573,Impfondo,CG,1.6381,18.0667,82.51,62,94,3.2,overcast clouds
574,Big Spring,US,32.2504,-101.4787,88.23,49,0,10.36,clear sky
575,Wiang Sa,TH,8.6359,99.3666,76.28,92,100,0.58,overcast clouds
576,Sisimiut,GL,66.9395,-53.6735,43.07,80,96,9.89,overcast clouds
577,Haines Junction,CA,60.7522,-137.5108,50.61,84,100,6.17,overcast clouds
578,Danielskuil,ZA,-28.1887,23.5395,58.14,34,0,7.2,clear sky
579,Dasoguz,TM,41.8363,59.9666,96.69,13,0,10.16,clear sky
580,Floriano,BR,-6.7669,-43.0225,96.39,25,8,7.58,clear sky
581,San Miguel,SV,13.4833,-88.1833,86.74,57,98,2.1,overcast clouds
582,Seoul,KR,37.5683,126.9778,74.64,79,98,2.71,overcast clouds
583,Zyryanka,RU,65.75,150.85,58.91,73,58,12.26,broken clouds
584,Eregli,TR,37.5133,34.0467,82.53,27,0,14.18,clear sky
585,Machilipatnam,IN,16.1667,81.1333,85.23,71,100,8.99,overcast clouds
586,Wilmington,US,34.2257,-77.9447,80.01,84,90,1.99,overcast clouds
587,Igarka,RU,67.4667,86.5833,57.97,67,24,5.41,few clouds
588,Taoudenni,ML,22.6783,-3.9836,116.17,7,1,7.29,clear sky
589,Teplodar,UA,46.5059,30.3252,78.91,47,89,6.8,overcast clouds
590,Mukhen,RU,48.1,136.1,65.05,98,100,2.62,moderate rain
591,Polyarnyy,RU,69.1989,33.4478,56.16,91,100,3.56,overcast clouds
592,Menongue,AO,-14.6585,17.691,74.75,21,0,6.17,clear sky
593,Nedjo,ET,9.5046,35.5019,59.32,94,100,2.3,light rain
594,Aswan,EG,24.0934,32.907,100.13,11,2,13.15,clear sky
595,Vega De Alatorre,MX,20.0333,-96.6333,83.08,64,92,2.57,overcast clouds
596,Sambava,MG,-14.2667,50.1667,72.48,79,51,16.44,broken clouds
597,Talas,TR,38.6908,35.5538,77.67,36,20,10.36,few clouds
598,Afua,BR,-0.1567,-50.3867,86.74,61,15,5.14,few clouds
599,Sao Joao Da Barra,BR,-21.6403,-41.0511,76.21,64,40,15.73,scattered clouds
600,Yeppoon,AU,-23.1333,150.7333,56.98,81,100,8.88,overcast clouds
601,Mondlo,ZA,-27.983,30.7177,54.99,53,0,4.92,clear sky
602,Pathein,MM,16.7833,94.7333,78.62,92,99,4.81,overcast clouds
603,Belousovka,KZ,50.1339,82.5239,68.85,60,75,6.71,broken clouds
604,Porto-Vecchio,FR,41.591,9.2795,94.66,38,0,16.11,clear sky
605,Cockburn Town,TC,21.4612,-71.1419,81.59,80,81,20.94,broken clouds
606,Kathu,TH,7.9178,98.3332,85.69,99,100,11.72,overcast clouds
607,Lasa,IT,46.6166,10.7002,83.35,39,50,2.73,scattered clouds
608,Sandy Bay,AU,-42.913,147.3532,49.89,75,40,11.5,scattered clouds
609,Taraza,CO,7.5836,-75.4007,88.11,60,27,4.45,scattered clouds
610,Kloulklubed,PW,7.0419,134.2556,73.9,81,100,10.33,overcast clouds
611,Gravdal,NO,68.1214,13.5031,51.84,80,77,10.13,broken clouds
612,Natal,BR,-5.795,-35.2094,81.66,71,42,15.41,scattered clouds
613,Walvis Bay,NA,-22.9575,14.5053,75.87,29,0,9.46,clear sky
614,Dawei,MM,14.0833,98.2,77.79,90,91,4.18,light rain
615,Tilichiki,RU,60.4667,166.1,48.34,91,98,5.28,overcast clouds
616,Nizhniy Tsasuchey,RU,50.5167,115.1333,60.91,96,100,8.57,overcast clouds
617,Kenai,US,60.5544,-151.2583,54.09,97,100,6.91,light rain
618,Misratah,LY,32.3754,15.0925,82.27,54,0,13.73,clear sky
619,Ilhabela,BR,-23.7781,-45.3581,82.96,47,100,3.51,overcast clouds
620,Damaturu,NG,11.747,11.9608,86.25,50,100,7.25,overcast clouds
621,Sao Gabriel Da Cachoeira,BR,-0.1303,-67.0892,89.71,52,51,3.2,broken clouds
622,Fairbanks,US,64.8378,-147.7164,55.6,94,100,5.75,light rain
623,Saginaw,US,43.3334,-84.0333,77.36,68,40,6.91,scattered clouds
624,Thinadhoo,MV,0.5333,72.9333,83.62,77,67,13.49,broken clouds
625,Killarney,IE,52.05,-9.5167,73.45,60,0,3.44,clear sky
626,Mildura,AU,-34.2,142.15,54.07,42,22,14.63,few clouds
627,Beipiao,CN,41.7919,120.7792,70.43,74,62,2.84,broken clouds
628,Brazzaville,CG,-4.2658,15.2832,93.58,25,2,2.21,clear sky
629,San Cristobal,VE,7.7669,-72.225,83.73,40,66,7.38,broken clouds
630,Lavras,BR,-21.2453,-44.9997,78.93,36,100,6.8,overcast clouds
631,Oktyabrskoye,RU,43.0645,44.7417,78.94,61,0,11.18,clear sky
632,Dalnegorsk,RU,44.5604,135.5701,57.4,99,100,2.86,overcast clouds
633,Guiratinga,BR,-16.3494,-53.7583,92.66,24,97,8.28,overcast clouds
634,Mago,RU,53.2514,140.1822,59.88,82,100,4.21,overcast clouds
635,Saint-Joseph,RE,-21.3667,55.6167,66.58,75,41,13.47,scattered clouds
636,Champerico,GT,14.3,-91.9167,81.99,73,78,0.89,broken clouds
637,Salaga,GH,8.5508,-0.5188,84.33,62,100,5.32,overcast clouds
638,Barstow,US,34.8986,-117.0228,92.39,20,0,3.56,clear sky
639,Mariinsk,RU,56.2139,87.7472,54.37,85,62,1.14,broken clouds
640,Ambulu,ID,-8.345,113.6058,74.64,90,31,3.31,scattered clouds
641,Alabaster,US,33.2443,-86.8164,91.08,66,69,1.99,broken clouds
642,Perehonivka,UA,48.5355,30.5192,77.41,35,94,2.71,overcast clouds
643,Carauari,BR,-4.8828,-66.8958,90.7,50,45,3.83,scattered clouds
644,Tupik,RU,54.4253,119.9327,63.12,96,100,1.77,moderate rain
645,Dargaville,NZ,-35.9333,173.8833,50.2,78,64,6.89,broken clouds
646,Baijiantan,CN,45.6333,85.1833,90.57,16,4,6.51,clear sky
647,Saint-Georges,GD,12.0564,-61.7485,81.99,76,100,13.94,overcast clouds
648,Iberia,US,29.9502,-91.7507,91.96,62,20,3.44,few clouds
649,Ligayan,PH,4.6533,119.4706,82.69,78,94,7.92,overcast clouds
650,Ginda,IN,30.6945,78.4932,68.02,86,26,3.44,scattered clouds
651,Moyale,KE,3.5167,39.0584,71.15,58,94,7.2,overcast clouds
652,Mazamari,PE,-11.3258,-74.5308,84.0,60,20,2.17,few clouds
653,Bantou,CN,26.2151,117.4893,80.31,81,100,2.1,overcast clouds
654,Paranapanema,BR,-23.3886,-48.7228,83.19,33,100,15.03,overcast clouds
655,Svetlogorsk,BY,52.6333,29.7333,64.98,62,90,3.67,overcast clouds
656,Arecibo,PR,18.4724,-66.7157,88.57,77,23,5.01,few clouds
657,Dabat,ET,12.9842,37.765,54.99,91,100,4.7,light rain
658,Kupang,ID,-10.1667,123.5833,72.9,74,30,11.59,scattered clouds
659,Marinette,US,45.1,-87.6307,73.89,73,0,8.05,clear sky
660,Ancud,CL,-41.8697,-73.8203,42.22,76,100,15.52,light rain
661,Margate,GB,51.3813,1.3862,76.1,60,35,1.99,scattered clouds
662,Yuzha,RU,56.5831,42.0122,66.58,64,82,2.01,broken clouds
663,Katherine,AU,-14.4667,132.2667,57.52,72,46,6.91,scattered clouds
664,Nha Trang,VN,12.25,109.1833,82.4,88,37,3.4,scattered clouds
665,Muros,ES,42.7762,-9.0603,69.33,72,45,8.75,scattered clouds
666,Serebryanyy Bor,RU,56.8,124.8,61.61,96,84,3.94,broken clouds
667,Vila Franca Do Campo,PT,37.7167,-25.4333,75.61,71,0,10.09,clear sky
668,San Ramon,US,37.7799,-121.978,74.59,71,0,1.99,clear sky
669,Bara,NG,10.3744,10.7288,82.33,68,98,9.69,light rain
670,Nayoro,JP,44.3506,142.4578,63.54,93,100,2.8,overcast clouds
671,Ushtobe,KZ,45.2514,77.9838,79.0,22,0,3.69,clear sky
672,Mishkino,RU,55.3389,63.9175,64.45,93,66,7.09,broken clouds
673,Yining,CN,29.0361,114.5636,83.34,77,100,2.28,overcast clouds
674,Padilla,CO,3.2204,-76.3139,80.17,65,52,3.53,broken clouds
675,Kismayo,SO,-0.3582,42.5454,75.76,82,98,18.5,overcast clouds
676,Turka,UA,49.1541,23.0297,66.34,45,86,6.29,overcast clouds
677,Mandurah,AU,-32.55,115.7,55.9,67,92,6.8,overcast clouds
678,Richards Bay,ZA,-28.783,32.0377,65.57,70,0,8.61,clear sky
679,Shimoda,JP,34.6667,138.95,72.1,92,100,5.41,light rain
680,Yeniseysk,RU,58.4497,92.1703,52.56,92,83,1.66,light rain
681,Tautira,PF,-17.7333,-149.15,75.65,60,78,23.78,broken clouds
682,Santander Jimenez,MX,24.2167,-98.4667,89.87,41,82,11.7,broken clouds
683,Goderich,CA,43.7501,-81.7165,74.91,60,19,6.26,few clouds
684,Volga,RU,57.9516,38.3879,62.31,79,26,6.35,light rain
685,Batsfjord,NO,70.6345,29.7185,51.58,93,100,25.32,light rain
686,Asbe Teferi,ET,9.0833,40.8667,64.67,77,97,7.7,light rain
687,Kapit,MY,2.0167,112.9333,73.4,98,84,0.81,broken clouds
688,Waipawa,NZ,-41.4122,175.5153,36.01,86,0,4.38,clear sky
689,Huarmey,PE,-10.0681,-78.1522,65.32,74,60,11.39,broken clouds
690,Gat,IL,31.61,34.7642,83.8,3,0,9.66,clear sky
691,Darhan,MN,49.4867,105.9228,58.19,67,19,3.89,few clouds
692,Tucurui,BR,-3.7661,-49.6725,91.49,45,88,3.89,overcast clouds
693,Boromo,BF,11.75,-2.9333,89.49,50,100,6.31,overcast clouds
694,Santa Lucia,ES,27.9117,-15.5407,69.76,65,20,28.77,few clouds
695,Tagusao,PH,9.1924,117.8141,80.44,81,49,1.79,scattered clouds
696,Verkhnyaya Inta,RU,65.9811,60.3094,71.1,54,100,14.79,overcast clouds
697,Ulladulla,AU,-35.35,150.4667,55.6,50,0,13.24,clear sky
